{"type": "FeatureCollection", "features": [{"type": "Feature", "properties": {"name": "火烧排"}, "geometry": {"type": "Point", "coordinates": [118.3885208903, 28.8071173249]}}, {"type": "Feature", "properties": {"name": "白塘"}, "geometry": {"type": "Point", "coordinates": [118.3921406615, 28.8078374599]}}, {"type": "Feature", "properties": {"name": "东弄"}, "geometry": {"type": "Point", "coordinates": [118.3885664203, 28.8051876809]}}, {"type": "Feature", "properties": {"name": "万家山"}, "geometry": {"type": "Point", "coordinates": [118.3871334132, 28.8062162588]}}, {"type": "Feature", "properties": {"name": "狗屎亭"}, "geometry": {"type": "Point", "coordinates": [118.3850013506, 28.8065389865]}}, {"type": "Feature", "properties": {"name": "仓坞"}, "geometry": {"type": "Point", "coordinates": [118.3912383545, 28.8066687945]}}, {"type": "Feature", "properties": {"name": "下家头"}, "geometry": {"type": "Point", "coordinates": [118.3887428248, 28.8094177536]}}, {"type": "Feature", "properties": {"name": "坝上"}, "geometry": {"type": "Point", "coordinates": [118.3899742646, 28.8120308517]}}, {"type": "Feature", "properties": {"name": "泥鳅坞"}, "geometry": {"type": "Point", "coordinates": [118.3936151086, 28.8089631202]}}]}