{"type": "FeatureCollection", "features": [{"type": "Feature", "properties": {"name": "明清坞"}, "geometry": {"type": "Point", "coordinates": [118.4633905979, 28.8447593164]}}, {"type": "Feature", "properties": {"name": "黄家店"}, "geometry": {"type": "Point", "coordinates": [118.4497556563, 28.8294811205]}}, {"type": "Feature", "properties": {"name": "港背山"}, "geometry": {"type": "Point", "coordinates": [118.4595908206, 28.8356325172]}}, {"type": "Feature", "properties": {"name": "前坞"}, "geometry": {"type": "Point", "coordinates": [118.4892735128, 28.8483030036]}}, {"type": "Feature", "properties": {"name": "蚂蟥弄"}, "geometry": {"type": "Point", "coordinates": [118.4865876073, 28.8468778536]}}, {"type": "Feature", "properties": {"name": "下畈"}, "geometry": {"type": "Point", "coordinates": [118.4725352061, 28.8392821884]}}, {"type": "Feature", "properties": {"name": "天安后补"}, "geometry": {"type": "Point", "coordinates": [118.4621924896, 28.8429272581]}}, {"type": "Feature", "properties": {"name": "白马弄"}, "geometry": {"type": "Point", "coordinates": [118.4069601061, 28.8025144363]}}]}