{"type": "FeatureCollection", "features": [{"type": "Feature", "properties": {"name": "双溪口1"}, "geometry": {"type": "Point", "coordinates": [118.5431354412, 29.0039625158]}}, {"type": "Feature", "properties": {"name": "双溪口2"}, "geometry": {"type": "Point", "coordinates": [118.5417957479, 28.9902692262]}}, {"type": "Feature", "properties": {"name": "狮东"}, "geometry": {"type": "Point", "coordinates": [118.5516224949, 28.9518721556]}}, {"type": "Feature", "properties": {"name": "大埂"}, "geometry": {"type": "Point", "coordinates": [118.4690345866, 28.9872707837]}}, {"type": "Feature", "properties": {"name": "东乡"}, "geometry": {"type": "Point", "coordinates": [118.4742021968, 28.9465440505]}}, {"type": "Feature", "properties": {"name": "路里坑"}, "geometry": {"type": "Point", "coordinates": [118.5227999876, 28.9950324136]}}, {"type": "Feature", "properties": {"name": "彭川"}, "geometry": {"type": "Point", "coordinates": [118.5194047947, 29.0087012284]}}, {"type": "Feature", "properties": {"name": "开向岭"}, "geometry": {"type": "Point", "coordinates": [118.6626486242, 29.0117676198]}}, {"type": "Feature", "properties": {"name": "祠堂坑"}, "geometry": {"type": "Point", "coordinates": [118.6680223877, 28.9968986851]}}, {"type": "Feature", "properties": {"name": "育苗中心"}, "geometry": {"type": "Point", "coordinates": [118.3931051041, 28.8016314987]}}, {"type": "Feature", "properties": {"name": "景区"}, "geometry": {"type": "Point", "coordinates": [118.3893548048, 28.8066502766]}}, {"type": "Feature", "properties": {"name": "十五里"}, "geometry": {"type": "Point", "coordinates": [118.4806237929, 28.8414570661]}}, {"type": "Feature", "properties": {"name": "草坪"}, "geometry": {"type": "Point", "coordinates": [118.3871074783, 28.791440135]}}, {"type": "Feature", "properties": {"name": "天安"}, "geometry": {"type": "Point", "coordinates": [118.4637746572, 28.8387197066]}}, {"type": "Feature", "properties": {"name": "新塘岭"}, "geometry": {"type": "Point", "coordinates": [118.4212590085, 28.8061061299]}}, {"type": "Feature", "properties": {"name": "羊坳水库"}, "geometry": {"type": "Point", "coordinates": [118.4501761385, 28.8327418]}}, {"type": "Feature", "properties": {"name": "金川"}, "geometry": {"type": "Point", "coordinates": [118.4868112757, 28.8974120275]}}, {"type": "Feature", "properties": {"name": "石坝"}, "geometry": {"type": "Point", "coordinates": [118.4584438168, 28.8367052139]}}, {"type": "Feature", "properties": {"name": "和平"}, "geometry": {"type": "Point", "coordinates": [118.4478343576, 28.8259843712]}}, {"type": "Feature", "properties": {"name": "五联"}, "geometry": {"type": "Point", "coordinates": [118.5081655501, 28.8519720923]}}, {"type": "Feature", "properties": {"name": "曹会关"}, "geometry": {"type": "Point", "coordinates": [118.4193856038, 28.8244515827]}}, {"type": "Feature", "properties": {"name": "同弓示范基地"}, "geometry": {"type": "Point", "coordinates": [118.4222562728, 28.9018074212]}}, {"type": "Feature", "properties": {"name": "同弓苗地"}, "geometry": {"type": "Point", "coordinates": [118.441409144, 28.8945709998]}}, {"type": "Feature", "properties": {"name": "同弓高换基地"}, "geometry": {"type": "Point", "coordinates": [118.4116412187, 28.9145112262]}}]}